[{"name":"McDonald's","city":"Murphy","latitude":35.080653974,"longitude":-84.035811641,"stars":"","new_name":"McDonald's"},{"name":"Bojangles' Famous Chicken 'n Biscuits","city":"Bryson City","latitude":35.425296,"longitude":-83.446639,"stars":"","new_name":"Bojangles"},{"name":"Burger King","city":"Franklin","latitude":35.16566,"longitude":-83.40051,"stars":"","new_name":"Burger King"},{"name":"Bojangles' Famous Chicken 'n Biscuits","city":"Franklin","latitude":35.162468,"longitude":-83.392228,"stars":"","new_name":"Bojangles"},{"name":"Wendy's","city":"Franklin","latitude":35.160043,"longitude":-83.391085,"stars":"","new_name":"Wendy's"},{"name":"McDonald's","city":"Franklin","latitude":35.18693,"longitude":-83.37137,"stars":"","new_name":"McDonald's"},{"name":"Wendy's","city":"Cherokee","latitude":35.47075,"longitude":-83.310643,"stars":"","new_name":"Wendy's"},{"name":"Bojangles' Famous Chicken 'n Biscuits","city":"Sylva","latitude":35.362077,"longitude":-83.202253,"stars":"","new_name":"Bojangles"},{"name":"Taco Bell","city":"Waynesville","latitude":35.46595,"longitude":-83.00695,"stars":"","new_name":"Taco Bell"},{"name":"Chick-fil-A","city":"Waynesville","latitude":35.503586,"longitude":-82.98945,"stars":"","new_name":"Chick-fil-A"},{"name":"Bojangles' Famous Chicken 'n Biscuits","city":"Waynesville","latitude":35.524332,"longitude":-82.984872,"stars":"","new_name":"Bojangles"},{"name":"Taco Bell","city":"Pisgah Forest","latitude":35.2759,"longitude":-82.7022,"stars":"","new_name":"Taco Bell"},{"name":"Bojangles' Famous Chicken 'n Biscuits","city":"Mills River","latitude":35.40157,"longitude":-82.56992,"stars":"","new_name":"Bojangles"},{"name":"McDonald's","city":"Arden","latitude":35.48244,"longitude":-82.55379,"stars":"","new_name":"McDonald's"},{"name":"Wendy's","city":"Asheville","latitude":35.5107,"longitude":-82.5259,"stars":"","new_name":"Wendy's"},{"name":"McDonald's","city":"Asheville","latitude":35.57136,"longitude":-82.50495,"stars":"","new_name":"McDonald's"},{"name":"Burger King","city":"Hendersonville","latitude":35.333508,"longitude":-82.448418,"stars":"","new_name":"Burger King"},{"name":"Bojangles' Famous Chicken 'n Biscuits","city":"Flat Rock","latitude":35.29728,"longitude":-82.40994,"stars":"","new_name":"Bojangles"},{"name":"Taco Bell","city":"Spruce Pine","latitude":35.8873,"longitude":-82.0646,"stars":"","new_name":"Taco Bell"},{"name":"McDonald's","city":"Marion","latitude":35.704,"longitude":-82.0378,"stars":"","new_name":"McDonald's"},{"name":"McDonald's","city":"Marion","latitude":35.6763,"longitude":-82.0137,"stars":"","new_name":"McDonald's"},{"name":"Taco Bell","city":"Forest City","latitude":35.33411801,"longitude":-81.89239655,"stars":"","new_name":"Taco Bell"},{"name":"McDonalds","city":"Forest City","latitude":35.33401,"longitude":-81.865105,"stars":"","new_name":"McDonald's"},{"name":"Taco Bell","city":"Morganton","latitude":35.735636,"longitude":-81.726125,"stars":"","new_name":"Taco Bell"},{"name":"Bojangles' Famous Chicken 'n Biscuits","city":"Morganton","latitude":35.718113,"longitude":-81.695083,"stars":"","new_name":"Bojangles"},{"name":"McDonald's","city":"Boone","latitude":36.20624,"longitude":-81.67109,"stars":"","new_name":"McDonald's"},{"name":"Wendy's","city":"Boone","latitude":36.2053,"longitude":-81.6694,"stars":"","new_name":"Wendy's"},{"name":"Bojangles' Famous Chicken 'n Biscuits","city":"Boone","latitude":36.204748,"longitude":-81.668966,"stars":"","new_name":"Bojangles"},{"name":"Taco Bell","city":"Boone","latitude":36.204913,"longitude":-81.66803,"stars":"","new_name":"Taco Bell"},{"name":"Burger King","city":"Boone","latitude":36.201496,"longitude":-81.656779,"stars":"","new_name":"Burger King"},{"name":"Bojangles' Famous Chicken 'n Biscuits","city":"Shelby","latitude":35.2826,"longitude":-81.556,"stars":"","new_name":"Bojangles"},{"name":"Bojangles' Famous Chicken 'n Biscuits","city":"Shelby","latitude":35.28257,"longitude":-81.55593,"stars":"","new_name":"Bojangles"},{"name":"McDonald's","city":"Lenoir","latitude":35.91401,"longitude":-81.527586,"stars":"","new_name":"McDonald's"},{"name":"Wendy's","city":"Lenoir","latitude":35.9153,"longitude":-81.5242,"stars":"","new_name":"Wendy's"},{"name":"McDonald's","city":"Shelby","latitude":35.2684,"longitude":-81.4853,"stars":"","new_name":"McDonald's"},{"name":"Chick-Fil-A","city":"Shelby","latitude":35.26783,"longitude":-81.48491,"stars":"","new_name":"Chick-fil-A"},{"name":"McDonald's","city":"Hickory","latitude":35.716,"longitude":-81.3368,"stars":"","new_name":"McDonald's"},{"name":"McDonald's","city":"Hickory","latitude":35.75332,"longitude":-81.28572,"stars":"","new_name":"McDonald's"},{"name":"Taco Bell","city":"Hickory","latitude":35.75344,"longitude":-81.28499,"stars":"","new_name":"Taco Bell"},{"name":"Subway","city":"Conover","latitude":35.695115,"longitude":-81.23785,"stars":"","new_name":"Subway"},{"name":"McDonald's","city":"Gastonia","latitude":35.25931,"longitude":-81.21692,"stars":"","new_name":"McDonald's"},{"name":"Bojangles' Famous Chicken 'n Biscuits","city":"Dallas","latitude":35.315017,"longitude":-81.192074,"stars":"","new_name":"Bojangles"},{"name":"McDonald's","city":"Dallas","latitude":35.3164776,"longitude":-81.1903282,"stars":1.0,"new_name":"McDonald's"},{"name":"Pizza Hut","city":"Gastonia","latitude":35.251371,"longitude":-81.1898856,"stars":3.0,"new_name":"Pizza Hut"},{"name":"Burger King","city":"Dallas","latitude":35.317115,"longitude":-81.1894179,"stars":1.5,"new_name":"Burger King"},{"name":"Taco Bell","city":"Gastonia","latitude":35.2884579,"longitude":-81.1885669,"stars":2.5,"new_name":"Taco Bell"},{"name":"McDonald's","city":"Taylorsville","latitude":35.92153,"longitude":-81.18525,"stars":"","new_name":"McDonald's"},{"name":"Bojangles'","city":"Gastonia","latitude":35.2538194,"longitude":-81.1759126,"stars":2.5,"new_name":"Bojangles"},{"name":"McDonald's","city":"Gastonia","latitude":35.2332157624,"longitude":-81.1703743739,"stars":2.5,"new_name":"McDonald's"},{"name":"Burger King","city":"Gastonia","latitude":35.2333569,"longitude":-81.1694742,"stars":1.5,"new_name":"Burger King"},{"name":"Taco Bell","city":"Gastonia","latitude":35.23256,"longitude":-81.169418,"stars":2.0,"new_name":"Taco Bell"},{"name":"Wendy's","city":"Gastonia","latitude":35.2324011,"longitude":-81.1692158,"stars":1.5,"new_name":"Wendy's"},{"name":"Taco Bell","city":"Gastonia","latitude":35.233111,"longitude":-81.168816,"stars":"","new_name":"Taco Bell"},{"name":"Wendy's","city":"Gastonia","latitude":35.2627229,"longitude":-81.1569273,"stars":1.5,"new_name":"Wendy's"},{"name":"Taco Bell","city":"Gastonia","latitude":35.26218,"longitude":-81.156604,"stars":1.5,"new_name":"Taco Bell"},{"name":"McDonald's","city":"Gastonia","latitude":35.262766,"longitude":-81.153491,"stars":2.5,"new_name":"McDonald's"},{"name":"Wendy's","city":"Gastonia","latitude":35.2626428627,"longitude":-81.1530299485,"stars":2.0,"new_name":"Wendy's"},{"name":"Bojangles' Famous Chicken 'n Biscuits","city":"Gastonia","latitude":35.2710021,"longitude":-81.14979,"stars":2.5,"new_name":"Bojangles"},{"name":"Taco Bell","city":"North Wilkesboro","latitude":36.17908,"longitude":-81.146102,"stars":"","new_name":"Taco Bell"},{"name":"Pizza Hut","city":"Gastonia","latitude":35.2792337,"longitude":-81.1404833,"stars":2.0,"new_name":"Pizza Hut"},{"name":"Wendy's","city":"North Wilkesboro","latitude":36.16562,"longitude":-81.13658,"stars":"","new_name":"Wendy's"},{"name":"McDonald's","city":"Gastonia","latitude":35.226728,"longitude":-81.1336768,"stars":3.0,"new_name":"McDonald's"},{"name":"McDonald's","city":"Gastonia","latitude":35.259590498,"longitude":-81.1251977831,"stars":1.5,"new_name":"McDonald's"},{"name":"Pizza Hut","city":"Gastonia","latitude":35.2396069,"longitude":-81.1232275,"stars":1.0,"new_name":"Pizza Hut"},{"name":"Subway","city":"Gastonia","latitude":35.2396069,"longitude":-81.1232275,"stars":2.5,"new_name":"Subway"},{"name":"Chick-fil-A","city":"Gastonia","latitude":35.258838,"longitude":-81.120197,"stars":1.5,"new_name":"Chick-fil-A"},{"name":"Bojangle's","city":"Gastonia","latitude":35.2229191,"longitude":-81.1026909,"stars":2.5,"new_name":"Bojangles"},{"name":"Subway","city":"Gastonia","latitude":35.22056,"longitude":-81.0961038,"stars":1.5,"new_name":"Subway"},{"name":"Wendy's","city":"Stanley","latitude":35.355244,"longitude":-81.091854,"stars":2.0,"new_name":"Wendy's"},{"name":"Subway","city":"Lowell","latitude":35.264095,"longitude":-81.0912548,"stars":3.0,"new_name":"Subway"},{"name":"Burger King","city":"Stanley","latitude":35.3535784,"longitude":-81.089862,"stars":2.5,"new_name":"Burger King"},{"name":"Pizza Hut","city":"Stanley","latitude":35.3535486,"longitude":-81.0889023,"stars":2.0,"new_name":"Pizza Hut"},{"name":"Bojangles","city":"Stanley","latitude":35.351668,"longitude":-81.08841,"stars":2.0,"new_name":"Bojangles"},{"name":"Burger King","city":"Denver","latitude":35.557615411,"longitude":-81.063809817,"stars":"","new_name":"Burger King"},{"name":"Bojangles' Famous Chicken 'n Biscuits","city":"Belmont","latitude":35.252274,"longitude":-81.0432267,"stars":2.0,"new_name":"Bojangles"},{"name":"McDonald's","city":"Belmont","latitude":35.2517293242,"longitude":-81.0431948304,"stars":2.0,"new_name":"McDonald's"},{"name":"Subway","city":"Belmont","latitude":35.255372,"longitude":-81.035428,"stars":3.5,"new_name":"Subway"},{"name":"Taco Bell","city":"Belmont","latitude":35.2519014,"longitude":-81.027912,"stars":2.5,"new_name":"Taco Bell"},{"name":"Pizza Hut","city":"Belmont","latitude":35.2546388,"longitude":-81.0278042,"stars":2.0,"new_name":"Pizza Hut"},{"name":"Chick-fil-A","city":"Belmont","latitude":35.255755,"longitude":-81.02746,"stars":4.0,"new_name":"Chick-fil-A"},{"name":"Wendy's","city":"Belmont","latitude":35.253329,"longitude":-81.027326,"stars":2.0,"new_name":"Wendy's"},{"name":"McDonald's","city":"Mt Holly","latitude":35.288874,"longitude":-81.020368,"stars":1.5,"new_name":"McDonald's"},{"name":"Subway","city":"Mount Holly","latitude":35.2881982,"longitude":-81.0170307,"stars":2.5,"new_name":"Subway"},{"name":"Burger King","city":"Denver","latitude":35.4495747532,"longitude":-81.0036249795,"stars":3.0,"new_name":"Burger King"},{"name":"Subway","city":"Denver","latitude":35.451794,"longitude":-81.001342,"stars":3.0,"new_name":"Subway"},{"name":"Chick-fil-A","city":"Denver","latitude":35.4486079377,"longitude":-81.0003217194,"stars":2.5,"new_name":"Chick-fil-A"},{"name":"Bojangles","city":"Denver","latitude":35.445538,"longitude":-80.998302,"stars":2.0,"new_name":"Bojangles"},{"name":"McDonald's","city":"Denver","latitude":35.4444555779,"longitude":-80.997598013,"stars":2.0,"new_name":"McDonald's"},{"name":"Subway","city":"Denver","latitude":35.4446312,"longitude":-80.9967418,"stars":2.5,"new_name":"Subway"},{"name":"Pizza Hut","city":"Denver","latitude":35.4433339,"longitude":-80.9963048,"stars":1.5,"new_name":"Pizza Hut"},{"name":"Wendy's","city":"Denver","latitude":35.4499044022,"longitude":-80.9942506473,"stars":3.0,"new_name":"Wendy's"},{"name":"Taco Bell","city":"Denver","latitude":35.453073,"longitude":-80.992829,"stars":1.0,"new_name":"Taco Bell"},{"name":"Taco Bell","city":"Charlotte","latitude":35.1007665,"longitude":-80.9915319,"stars":2.0,"new_name":"Taco Bell"},{"name":"Subway","city":"Charlotte","latitude":35.1032504,"longitude":-80.9908197,"stars":2.5,"new_name":"Subway"},{"name":"McDonald's","city":"Charlotte","latitude":35.1035732549,"longitude":-80.9854871035,"stars":2.0,"new_name":"McDonald's"},{"name":"Chick-fil-A","city":"Charlotte","latitude":35.103883,"longitude":-80.984753,"stars":2.5,"new_name":"Chick-fil-A"},{"name":"Wendy's","city":"Charlotte","latitude":35.1637880258,"longitude":-80.9722954028,"stars":2.0,"new_name":"Wendy's"},{"name":"McDonald's","city":"Charlotte","latitude":35.1631138,"longitude":-80.9700542,"stars":2.0,"new_name":"McDonald's"},{"name":"Bojangles' Famous Chicken 'n Biscuits","city":"Charlotte","latitude":35.1618979,"longitude":-80.9697088,"stars":1.5,"new_name":"Bojangles"},{"name":"McDonald's","city":"Charlotte","latitude":35.16361,"longitude":-80.96889,"stars":"","new_name":"McDonald's"},{"name":"Wendy's","city":"Charlotte","latitude":35.220249176,"longitude":-80.9473342896,"stars":3.0,"new_name":"Wendy's"},{"name":"Bojangles' Famous Chicken 'n Biscuits","city":"Charlotte","latitude":35.3235541,"longitude":-80.9467086,"stars":3.0,"new_name":"Bojangles"},{"name":"Pizza Hut","city":"Charlotte","latitude":35.3232661,"longitude":-80.9462201,"stars":1.5,"new_name":"Pizza Hut"},{"name":"Wendy's","city":"Charlotte","latitude":35.3239736,"longitude":-80.9460663,"stars":2.0,"new_name":"Wendy's"},{"name":"Bojangles' Famous Chicken 'n Biscuits","city":"Charlotte","latitude":35.2183178454,"longitude":-80.9454292831,"stars":3.5,"new_name":"Bojangles"},{"name":"Chick-fil-A","city":"Charlotte","latitude":35.326869,"longitude":-80.944742,"stars":4.0,"new_name":"Chick-fil-A"},{"name":"McDonald's","city":"Charlotte","latitude":35.3272296123,"longitude":-80.944431792,"stars":1.5,"new_name":"McDonald's"},{"name":"Chick-Fil-A","city":"Charlotte","latitude":35.2203621691,"longitude":-80.9438864067,"stars":2.5,"new_name":"Chick-fil-A"},{"name":"Burger King","city":"Charlotte","latitude":35.2204704924,"longitude":-80.9437250177,"stars":2.0,"new_name":"Burger King"},{"name":"Burger King","city":"Charlotte","latitude":35.2242345,"longitude":-80.9403374,"stars":1.0,"new_name":"Burger King"},{"name":"McDonald's","city":"Statesville","latitude":35.7961,"longitude":-80.9389,"stars":"","new_name":"McDonald's"},{"name":"Taco Bell","city":"Charlotte","latitude":35.13524,"longitude":-80.9387,"stars":2.0,"new_name":"Taco Bell"},{"name":"Burger King","city":"Charlotte","latitude":35.1370182,"longitude":-80.9368008,"stars":2.0,"new_name":"Burger King"},{"name":"Subway","city":"Charlotte","latitude":35.3033595,"longitude":-80.9366064,"stars":2.5,"new_name":"Subway"},{"name":"Subway","city":"Charlotte","latitude":35.1399558,"longitude":-80.9345809,"stars":2.0,"new_name":"Subway"},{"name":"Subway","city":"Charlotte","latitude":35.1464869,"longitude":-80.9340794,"stars":1.0,"new_name":"Subway"},{"name":"McDonald's","city":"Charlotte","latitude":35.1439366,"longitude":-80.9299109,"stars":2.0,"new_name":"McDonald's"},{"name":"Chick-fil-A","city":"Charlotte","latitude":35.144187,"longitude":-80.929394,"stars":2.5,"new_name":"Chick-fil-A"},{"name":"Subway","city":"Charlotte","latitude":35.1902505,"longitude":-80.9285933,"stars":3.5,"new_name":"Subway"},{"name":"Bojangles' Famous Chicken 'n Biscuits","city":"Charlotte","latitude":35.2289821,"longitude":-80.92585,"stars":3.0,"new_name":"Bojangles"},{"name":"Bojangles' Famous Chicken 'n Biscuits","city":"Charlotte","latitude":35.1476376,"longitude":-80.9253258,"stars":3.0,"new_name":"Bojangles"},{"name":"Pizza Hut","city":"Charlotte","latitude":35.147999,"longitude":-80.924835,"stars":1.5,"new_name":"Pizza Hut"},{"name":"Taco Bell","city":"Charlotte","latitude":35.22844,"longitude":-80.92388,"stars":3.0,"new_name":"Taco Bell"},{"name":"McDonald's","city":"Charlotte","latitude":35.2288654,"longitude":-80.9237331,"stars":2.0,"new_name":"McDonald's"},{"name":"Wendy's","city":"Charlotte","latitude":35.2298698,"longitude":-80.923698,"stars":2.0,"new_name":"Wendy's"},{"name":"Wendy's","city":"Charlotte","latitude":35.2298838,"longitude":-80.9236899,"stars":2.5,"new_name":"Wendy's"},{"name":"Subway","city":"Charlotte","latitude":35.1133461,"longitude":-80.9201257,"stars":2.0,"new_name":"Subway"},{"name":"Wendy's","city":"Charlotte","latitude":35.136574,"longitude":-80.9066664,"stars":2.0,"new_name":"Wendy's"},{"name":"Burger King","city":"Charlotte","latitude":35.2240066,"longitude":-80.8976778,"stars":2.0,"new_name":"Burger King"},{"name":"Burger King","city":"Charlotte","latitude":35.1495112,"longitude":-80.8967055,"stars":1.5,"new_name":"Burger King"},{"name":"Bojangles' Famous Chicken 'n Biscuits","city":"Charlotte","latitude":35.2240762,"longitude":-80.8946525,"stars":3.0,"new_name":"Bojangles"},{"name":"Wendy's","city":"Charlotte","latitude":35.2461011,"longitude":-80.8932264,"stars":1.0,"new_name":"Wendy's"},{"name":"Subway","city":"Charlotte","latitude":35.2452207,"longitude":-80.8922756,"stars":2.0,"new_name":"Subway"},{"name":"Pizza Hut","city":"Charlotte","latitude":35.2440913,"longitude":-80.8919731,"stars":1.5,"new_name":"Pizza Hut"},{"name":"Pizza Hut","city":"Cornelius","latitude":35.4800817,"longitude":-80.8911735,"stars":1.5,"new_name":"Pizza Hut"},{"name":"Taco Bell","city":"Charlotte","latitude":35.242165,"longitude":-80.888954,"stars":2.0,"new_name":"Taco Bell"},{"name":"McDonald's","city":"Charlotte","latitude":35.1634123238,"longitude":-80.8875965327,"stars":2.5,"new_name":"McDonald's"},{"name":"Bojangles' Famous Chicken 'n Biscuits","city":"Charlotte","latitude":35.2404121,"longitude":-80.8870329,"stars":1.5,"new_name":"Bojangles"},{"name":"McDonald's","city":"Charlotte","latitude":35.1844983153,"longitude":-80.8867834671,"stars":2.0,"new_name":"McDonald's"},{"name":"Wendy's","city":"Charlotte","latitude":35.184795,"longitude":-80.8864407,"stars":1.5,"new_name":"Wendy's"},{"name":"Subway","city":"Pineville","latitude":35.0908687,"longitude":-80.8862123,"stars":2.0,"new_name":"Subway"},{"name":"Burger King","city":"Pineville","latitude":35.08485,"longitude":-80.8855331,"stars":1.5,"new_name":"Burger King"},{"name":"Subway","city":"Charlotte","latitude":35.163772,"longitude":-80.8846069,"stars":2.5,"new_name":"Subway"},{"name":"McDonald's","city":"Charlotte","latitude":35.238288,"longitude":-80.88452,"stars":1.5,"new_name":"McDonald's"},{"name":"Wendy's","city":"Charlotte","latitude":35.1100489,"longitude":-80.882746,"stars":1.5,"new_name":"Wendy's"},{"name":"Subway","city":"Charlotte","latitude":35.2656632,"longitude":-80.8820968,"stars":3.5,"new_name":"Subway"},{"name":"Burger King","city":"Charlotte","latitude":35.2663472,"longitude":-80.8812971,"stars":1.0,"new_name":"Burger King"},{"name":"Bojangles' Famous Chicken 'n Biscuits","city":"Charlotte","latitude":35.1785651,"longitude":-80.8806487,"stars":2.5,"new_name":"Bojangles"},{"name":"McDonald's","city":"Charlotte","latitude":35.1072758,"longitude":-80.8803698,"stars":1.5,"new_name":"McDonald's"},{"name":"Chick-fil-A","city":"Charlotte","latitude":35.104851,"longitude":-80.879773,"stars":3.0,"new_name":"Chick-fil-A"},{"name":"Bojangles","city":"Cornelius","latitude":35.4820954,"longitude":-80.8796761,"stars":2.5,"new_name":"Bojangles"},{"name":"Taco Bell","city":"Pineville","latitude":35.085516,"longitude":-80.879508,"stars":"","new_name":"Taco Bell"},{"name":"Taco Bell","city":"Pineville","latitude":35.084106,"longitude":-80.878954,"stars":3.5,"new_name":"Taco Bell"},{"name":"Subway","city":"Pineville","latitude":35.0884119,"longitude":-80.878898,"stars":2.5,"new_name":"Subway"},{"name":"Taco Bell","city":"Cornelius","latitude":35.483607,"longitude":-80.877465,"stars":4.0,"new_name":"Taco Bell"},{"name":"McDonalds","city":"Charlotte","latitude":35.138125,"longitude":-80.8774324,"stars":2.0,"new_name":"McDonald's"},{"name":"Burger King","city":"Pineville","latitude":35.0934565,"longitude":-80.8773851,"stars":2.0,"new_name":"Burger King"},{"name":"Chick-fil-A","city":"Pineville","latitude":35.082333,"longitude":-80.877212,"stars":3.0,"new_name":"Chick-fil-A"},{"name":"Subway","city":"Cornelius","latitude":35.4816437,"longitude":-80.8767389,"stars":3.0,"new_name":"Subway"},{"name":"McDonald's","city":"Cornelius","latitude":35.4837929517,"longitude":-80.8765565604,"stars":1.5,"new_name":"McDonald's"},{"name":"Wendy's","city":"Cornelius","latitude":35.4825597,"longitude":-80.8764789,"stars":2.0,"new_name":"Wendy's"},{"name":"Taco Bell","city":"Charlotte","latitude":35.161153,"longitude":-80.876261,"stars":2.0,"new_name":"Taco Bell"},{"name":"Bojangles' Famous Chicken 'n Biscuits","city":"Charlotte","latitude":35.138604,"longitude":-80.876095,"stars":1.5,"new_name":"Bojangles"},{"name":"McDonald's","city":"Charlotte","latitude":35.1381379438,"longitude":-80.8759577572,"stars":1.5,"new_name":"McDonald's"},{"name":"Subway","city":"Charlotte","latitude":35.1515555258,"longitude":-80.8754086537,"stars":2.5,"new_name":"Subway"},{"name":"Pizza Hut","city":"Charlotte","latitude":35.1897454,"longitude":-80.8749903,"stars":1.5,"new_name":"Pizza Hut"},{"name":"Subway","city":"Mooresville","latitude":35.582983,"longitude":-80.874128,"stars":"","new_name":"Subway"},{"name":"Subway","city":"Huntersville","latitude":35.443879,"longitude":-80.8724469,"stars":1.5,"new_name":"Subway"},{"name":"Bojangles' Famous Chicken 'n Biscuits","city":"Huntersville","latitude":35.4430637,"longitude":-80.8720679,"stars":3.5,"new_name":"Bojangles"},{"name":"Wendy's","city":"Charlotte","latitude":35.0906289415,"longitude":-80.8695297661,"stars":2.0,"new_name":"Wendy's"},{"name":"McDonald's","city":"Charlotte","latitude":35.0894559261,"longitude":-80.8687236033,"stars":1.5,"new_name":"McDonald's"},{"name":"Pizza Hut","city":"Charlotte","latitude":35.0892447,"longitude":-80.8683306,"stars":1.5,"new_name":"Pizza Hut"},{"name":"Chick-fil-A","city":"Charlotte","latitude":35.198116,"longitude":-80.868032,"stars":3.0,"new_name":"Chick-fil-A"},{"name":"Burger King","city":"Charlotte","latitude":35.198409,"longitude":-80.8676799,"stars":2.5,"new_name":"Burger King"},{"name":"Bojangles' Famous Chicken 'n Biscuits","city":"Charlotte","latitude":35.0890219,"longitude":-80.8676405,"stars":1.5,"new_name":"Bojangles"},{"name":"Subway","city":"Charlotte","latitude":35.3568817,"longitude":-80.8676151,"stars":2.5,"new_name":"Subway"},{"name":"Chick-fil-A","city":"Huntersville","latitude":35.444966,"longitude":-80.866655,"stars":3.5,"new_name":"Chick-fil-A"},{"name":"McDonald's","city":"Huntersville","latitude":35.4443606305,"longitude":-80.866557,"stars":1.5,"new_name":"McDonald's"},{"name":"Burger King","city":"Huntersville","latitude":35.4428,"longitude":-80.8663,"stars":"","new_name":"Burger King"},{"name":"Burger King","city":"Huntersville","latitude":35.4427936,"longitude":-80.8662748,"stars":1.5,"new_name":"Burger King"},{"name":"McDonald's","city":"Charlotte","latitude":35.2015371095,"longitude":-80.8655253053,"stars":1.5,"new_name":"McDonald's"},{"name":"McDonald's","city":"Huntersville","latitude":35.40648,"longitude":-80.865495,"stars":2.0,"new_name":"McDonald's"},{"name":"Pizza Hut","city":"Huntersville","latitude":35.407082,"longitude":-80.864037,"stars":2.5,"new_name":"Pizza Hut"},{"name":"Taco Bell","city":"Charlotte","latitude":35.204348,"longitude":-80.863485,"stars":2.5,"new_name":"Taco Bell"},{"name":"Subway","city":"Davidson","latitude":35.5034994,"longitude":-80.8631998,"stars":3.0,"new_name":"Subway"},{"name":"Bojangles' Famous Chicken 'n Biscuits","city":"Charlotte","latitude":35.2144645,"longitude":-80.8621046,"stars":2.5,"new_name":"Bojangles"},{"name":"McDonald's","city":"Charlotte","latitude":35.3469494,"longitude":-80.861239,"stars":2.0,"new_name":"McDonald's"},{"name":"Subway","city":"Charlotte","latitude":35.0891974,"longitude":-80.8605246,"stars":4.0,"new_name":"Subway"},{"name":"Subway","city":"Huntersville","latitude":35.4430913,"longitude":-80.8601354,"stars":4.0,"new_name":"Subway"},{"name":"Bojangles' Famous Chicken 'n Biscuits","city":"Charlotte","latitude":35.2365632457,"longitude":-80.859019272,"stars":2.0,"new_name":"Bojangles"},{"name":"Burger King","city":"Charlotte","latitude":35.0933956,"longitude":-80.8584428,"stars":3.0,"new_name":"Burger King"},{"name":"Wendy's","city":"Charlotte","latitude":35.3500065386,"longitude":-80.8578350767,"stars":1.5,"new_name":"Wendy's"},{"name":"McDonald's","city":"Charlotte","latitude":35.1157553887,"longitude":-80.856975764,"stars":1.5,"new_name":"McDonald's"},{"name":"McDonald's","city":"Charlotte","latitude":35.1157,"longitude":-80.85691,"stars":"","new_name":"McDonald's"},{"name":"Chick-fil-A","city":"Charlotte","latitude":35.349709,"longitude":-80.856455,"stars":3.5,"new_name":"Chick-fil-A"},{"name":"Bojangles' Famous Chicken 'n Biscuits","city":"Huntersville","latitude":35.4124253619,"longitude":-80.8563901995,"stars":3.0,"new_name":"Bojangles"},{"name":"Bojangles' Famous Chicken 'n Biscuits","city":"Huntersville","latitude":35.412532,"longitude":-80.856311,"stars":"","new_name":"Bojangles"},{"name":"Wendy's","city":"Huntersville","latitude":35.4090152,"longitude":-80.8553793,"stars":3.0,"new_name":"Wendy's"},{"name":"Taco Bell","city":"Huntersville","latitude":35.411622,"longitude":-80.85526,"stars":2.5,"new_name":"Taco Bell"},{"name":"Bojangles' Famous Chicken 'n Biscuits","city":"Charlotte","latitude":35.3055448,"longitude":-80.8549469,"stars":2.0,"new_name":"Bojangles"},{"name":"Burger King","city":"Charlotte","latitude":35.2694376,"longitude":-80.854428,"stars":1.0,"new_name":"Burger King"},{"name":"McDonald's","city":"Charlotte","latitude":35.2691999159,"longitude":-80.8535351604,"stars":1.0,"new_name":"McDonald's"},{"name":"Subway","city":"Huntersville","latitude":35.4112946,"longitude":-80.8535251,"stars":3.0,"new_name":"Subway"},{"name":"Subway","city":"Charlotte","latitude":35.0553914,"longitude":-80.8516606,"stars":2.0,"new_name":"Subway"},{"name":"Wendy's","city":"Charlotte","latitude":35.0295307,"longitude":-80.8509383,"stars":2.0,"new_name":"Wendy's"},{"name":"Chick-fil-A","city":"Charlotte","latitude":35.352234,"longitude":-80.850743,"stars":4.0,"new_name":"Chick-fil-A"},{"name":"Wendy's","city":"Charlotte","latitude":35.172935,"longitude":-80.8507309,"stars":2.0,"new_name":"Wendy's"},{"name":"McDonald's","city":"Charlotte","latitude":35.1724653719,"longitude":-80.8504847391,"stars":1.5,"new_name":"McDonald's"},{"name":"Chick-fil-A","city":"Charlotte","latitude":35.171698,"longitude":-80.849907,"stars":4.0,"new_name":"Chick-fil-A"},{"name":"Chick-fil-A","city":"Charlotte","latitude":35.2338693149,"longitude":-80.8497967378,"stars":1.5,"new_name":"Chick-fil-A"},{"name":"Subway","city":"Charlotte","latitude":35.2331042877,"longitude":-80.8496199619,"stars":2.5,"new_name":"Subway"},{"name":"McDonald's","city":"Charlotte","latitude":35.0872226743,"longitude":-80.8496046308,"stars":2.0,"new_name":"McDonald's"},{"name":"Subway","city":"Charlotte","latitude":35.0233033,"longitude":-80.848678,"stars":1.5,"new_name":"Subway"},{"name":"Subway","city":"Charlotte","latitude":35.1733176,"longitude":-80.847734,"stars":2.5,"new_name":"Subway"},{"name":"Pizza Hut","city":"Charlotte","latitude":35.0530905,"longitude":-80.8471633,"stars":1.5,"new_name":"Pizza Hut"},{"name":"Bojangles' Famous Chicken 'n Biscuits","city":"Charlotte","latitude":35.2221416,"longitude":-80.8460048,"stars":3.5,"new_name":"Bojangles"},{"name":"Taco Bell","city":"Charlotte","latitude":35.171225,"longitude":-80.845962,"stars":2.0,"new_name":"Taco Bell"},{"name":"Subway","city":"Charlotte","latitude":35.2254586,"longitude":-80.8452769,"stars":2.5,"new_name":"Subway"},{"name":"Subway","city":"Charlotte","latitude":35.202849,"longitude":-80.844947,"stars":3.5,"new_name":"Subway"},{"name":"McDonald's","city":"Charlotte","latitude":35.308569941,"longitude":-80.8440944552,"stars":2.0,"new_name":"McDonald's"},{"name":"Chick-fil-A","city":"Charlotte","latitude":35.2265794,"longitude":-80.8432784,"stars":4.0,"new_name":"Chick-fil-A"},{"name":"McDonald's","city":"Charlotte","latitude":35.2254139,"longitude":-80.8432104,"stars":3.0,"new_name":"McDonald's"},{"name":"Subway","city":"Charlotte","latitude":35.2277864,"longitude":-80.8428303,"stars":3.0,"new_name":"Subway"},{"name":"McDonald's","city":"Charlotte","latitude":35.2264848,"longitude":-80.8427064,"stars":4.5,"new_name":"McDonald's"},{"name":"Bojangles'","city":"Charlotte","latitude":35.2284099,"longitude":-80.8426239,"stars":3.0,"new_name":"Bojangles"},{"name":"Taco Bell","city":"Charlotte","latitude":35.3078610397,"longitude":-80.8424159999,"stars":2.0,"new_name":"Taco Bell"},{"name":"Subway","city":"Charlotte","latitude":35.2286829,"longitude":-80.8416712,"stars":2.0,"new_name":"Subway"},{"name":"Subway","city":"Charlotte","latitude":35.3508308,"longitude":-80.8416712,"stars":1.5,"new_name":"Subway"},{"name":"Wendy's","city":"Charlotte","latitude":35.3079935,"longitude":-80.8414285,"stars":1.5,"new_name":"Wendy's"},{"name":"Bojangles' Famous Chicken 'n Biscuits","city":"Charlotte","latitude":35.224533,"longitude":-80.841029,"stars":3.5,"new_name":"Bojangles"},{"name":"Subway","city":"Charlotte","latitude":35.306554,"longitude":-80.8408062,"stars":2.0,"new_name":"Subway"},{"name":"Burger King","city":"Charlotte","latitude":35.2246882,"longitude":-80.8406333,"stars":2.0,"new_name":"Burger King"},{"name":"Chick-fil-A","city":"Charlotte","latitude":35.203872,"longitude":-80.838296,"stars":4.0,"new_name":"Chick-fil-A"},{"name":"Bojangles' Famous Chicken 'n Biscuits","city":"Charlotte","latitude":35.275521,"longitude":-80.8360774,"stars":1.0,"new_name":"Bojangles"},{"name":"Wendy's","city":"Charlotte","latitude":35.2141379,"longitude":-80.8353793,"stars":1.5,"new_name":"Wendy's"},{"name":"Pizza Hut","city":"Charlotte","latitude":35.2070881,"longitude":-80.8351947,"stars":1.5,"new_name":"Pizza Hut"},{"name":"Ronald Mcdonald House of Charlotte","city":"Charlotte","latitude":35.2036290715,"longitude":-80.8338189125,"stars":5.0,"new_name":"NA"},{"name":"Subway","city":"Charlotte","latitude":35.2121416,"longitude":-80.8337319,"stars":3.5,"new_name":"Subway"},{"name":"McDonald's","city":"Charlotte","latitude":35.1486809846,"longitude":-80.8330007596,"stars":2.0,"new_name":"McDonald's"},{"name":"Chick-fil-A","city":"Charlotte","latitude":35.152911,"longitude":-80.832917,"stars":2.0,"new_name":"Chick-fil-A"},{"name":"Bojangles' Famous Chicken 'n Biscuits","city":"Huntersville","latitude":35.3709932,"longitude":-80.8313345,"stars":2.0,"new_name":"Bojangles"},{"name":"McDonald's","city":"Huntersville","latitude":35.3704701,"longitude":-80.8311615,"stars":2.0,"new_name":"McDonald's"},{"name":"McDonald's","city":"Huntersville","latitude":35.3708580775,"longitude":-80.8309432492,"stars":3.5,"new_name":"McDonald's"},{"name":"Burger King","city":"Charlotte","latitude":35.148994656,"longitude":-80.8300101757,"stars":2.5,"new_name":"Burger King"},{"name":"Bojangles' Famous Chicken 'n Biscuits","city":"Charlotte","latitude":35.2134609,"longitude":-80.8299721,"stars":3.0,"new_name":"Bojangles"},{"name":"Bojangles' Famous Chicken 'n Biscuits","city":"Charlotte","latitude":35.1541492,"longitude":-80.828582,"stars":2.0,"new_name":"Bojangles"},{"name":"Burger King","city":"Charlotte","latitude":35.213617,"longitude":-80.8279899,"stars":2.0,"new_name":"Burger King"},{"name":"Subway","city":"Huntersville","latitude":35.3717893,"longitude":-80.8272777,"stars":2.5,"new_name":"Subway"},{"name":"Wendy's","city":"Charlotte","latitude":35.0615538,"longitude":-80.8156107,"stars":2.0,"new_name":"Wendy's"},{"name":"Subway","city":"Charlotte","latitude":35.053486,"longitude":-80.815603,"stars":3.0,"new_name":"Subway"},{"name":"Chick-fil-A","city":"Charlotte","latitude":35.05974689,"longitude":-80.813444,"stars":4.0,"new_name":"Chick-fil-A"},{"name":"Chick-fil-A","city":"Charlotte","latitude":35.333598,"longitude":-80.813201,"stars":2.5,"new_name":"Chick-fil-A"},{"name":"Taco Bell","city":"Charlotte","latitude":35.33297,"longitude":-80.810766,"stars":2.5,"new_name":"Taco Bell"},{"name":"Subway","city":"Charlotte","latitude":35.2206335486,"longitude":-80.8102176344,"stars":2.0,"new_name":"Subway"},{"name":"Pizza Hut","city":"Charlotte","latitude":35.146999,"longitude":-80.80925,"stars":1.5,"new_name":"Pizza Hut"},{"name":"McDonald's","city":"Charlotte","latitude":35.0372172,"longitude":-80.80552,"stars":1.5,"new_name":"McDonald's"},{"name":"Chick-fil-A","city":"Charlotte","latitude":35.033022,"longitude":-80.80485,"stars":3.0,"new_name":"Chick-fil-A"},{"name":"McDonald's","city":"Charlotte","latitude":35.2200516768,"longitude":-80.8025738597,"stars":1.5,"new_name":"McDonald's"},{"name":"Bojangles' Famous Chicken 'n Biscuits","city":"Charlotte","latitude":35.2045211,"longitude":-80.8024584,"stars":3.0,"new_name":"Bojangles"},{"name":"Burger King","city":"Charlotte","latitude":35.254958,"longitude":-80.802188,"stars":"","new_name":"Burger King"},{"name":"Burger King","city":"Charlotte","latitude":35.2549951,"longitude":-80.8021771,"stars":1.5,"new_name":"Burger King"},{"name":"Subway","city":"Charlotte","latitude":35.30184,"longitude":-80.8017221,"stars":2.0,"new_name":"Subway"},{"name":"Pizza Hut","city":"Mooresville","latitude":35.5352195,"longitude":-80.7995161,"stars":3.0,"new_name":"Pizza Hut"},{"name":"Chick-fil-A","city":"Charlotte","latitude":35.17716,"longitude":-80.799035,"stars":3.5,"new_name":"Chick-fil-A"},{"name":"Bojangles' Famous Chicken 'n Biscuits","city":"Charlotte","latitude":35.1768071,"longitude":-80.7986074,"stars":2.0,"new_name":"Bojangles"},{"name":"Wendy's","city":"Charlotte","latitude":35.176381,"longitude":-80.797592,"stars":2.5,"new_name":"Wendy's"},{"name":"McDonald's","city":"Charlotte","latitude":35.3337166642,"longitude":-80.7975634933,"stars":1.5,"new_name":"McDonald's"},{"name":"McDonald's","city":"Charlotte","latitude":35.1928848315,"longitude":-80.7956968329,"stars":2.0,"new_name":"McDonald's"},{"name":"Bojangles' Coliseum","city":"Charlotte","latitude":35.205058,"longitude":-80.7951951,"stars":3.0,"new_name":"Bojangles"},{"name":"Pizza Hut","city":"Charlotte","latitude":35.3337455,"longitude":-80.7951457,"stars":1.0,"new_name":"Pizza Hut"},{"name":"Subway","city":"Charlotte","latitude":35.3348305,"longitude":-80.7946048,"stars":2.0,"new_name":"Subway"},{"name":"McDonald's","city":"Charlotte","latitude":35.2769791069,"longitude":-80.7940015197,"stars":1.0,"new_name":"McDonald's"},{"name":"Bojangles' Famous Chicken 'n Biscuits","city":"Charlotte","latitude":35.275585,"longitude":-80.793882,"stars":2.0,"new_name":"Bojangles"},{"name":"Wendys","city":"Charlotte","latitude":35.3337597,"longitude":-80.7937128,"stars":2.0,"new_name":"Wendy's"},{"name":"Taco Bell","city":"Charlotte","latitude":35.274029,"longitude":-80.793539,"stars":2.5,"new_name":"Taco Bell"},{"name":"Wendy's","city":"Charlotte","latitude":35.2757164,"longitude":-80.7931498,"stars":2.0,"new_name":"Wendy's"},{"name":"Taco Bell","city":"Charlotte","latitude":35.25846,"longitude":-80.78938,"stars":1.0,"new_name":"Taco Bell"},{"name":"Pizza Hut","city":"Charlotte","latitude":35.3648706,"longitude":-80.7867722,"stars":1.5,"new_name":"Pizza Hut"},{"name":"Bojangles' Famous Chicken 'n Biscuits","city":"Charlotte","latitude":35.37095,"longitude":-80.784234,"stars":1.5,"new_name":"Bojangles"},{"name":"Subway","city":"Charlotte","latitude":35.3727676956,"longitude":-80.7840652764,"stars":2.0,"new_name":"Subway"},{"name":"McDonald's","city":"Charlotte","latitude":35.097899,"longitude":-80.783424,"stars":1.5,"new_name":"McDonald's"},{"name":"Chick-fil-a","city":"Charlotte","latitude":35.31364746,"longitude":-80.78340468,"stars":"","new_name":"Chick-fil-A"},{"name":"Pizza Hut","city":"Charlotte","latitude":35.2142,"longitude":-80.782256,"stars":1.0,"new_name":"Pizza Hut"},{"name":"McDonald's","city":"Charlotte","latitude":35.0976152,"longitude":-80.7817087,"stars":1.0,"new_name":"McDonald's"},{"name":"McDonald's","city":"Charlotte","latitude":35.2132805487,"longitude":-80.7816660404,"stars":1.5,"new_name":"McDonald's"},{"name":"Chick-fil-A","city":"Charlotte","latitude":35.098863,"longitude":-80.781315,"stars":3.5,"new_name":"Chick-fil-A"},{"name":"Subway","city":"Charlotte","latitude":35.2103287,"longitude":-80.7812013,"stars":3.5,"new_name":"Subway"},{"name":"Wendy's","city":"Charlotte","latitude":35.2159398,"longitude":-80.7803021,"stars":1.5,"new_name":"Wendy's"},{"name":"Bojangles' Famous Chicken 'n Biscuits","city":"Charlotte","latitude":35.2502942,"longitude":-80.7799126,"stars":2.5,"new_name":"Bojangles"},{"name":"Taco Bell","city":"Charlotte","latitude":35.098696,"longitude":-80.77854,"stars":2.5,"new_name":"Taco Bell"},{"name":"Pizza Hut","city":"Charlotte","latitude":35.0953817,"longitude":-80.7780359,"stars":2.0,"new_name":"Pizza Hut"},{"name":"Subway","city":"Charlotte","latitude":35.0618989,"longitude":-80.771467,"stars":3.0,"new_name":"Subway"},{"name":"Wendy's","city":"Charlotte","latitude":35.0513207,"longitude":-80.7705561,"stars":1.5,"new_name":"Wendy's"},{"name":"Wendy's","city":"Charlotte","latitude":35.0514114,"longitude":-80.7701524,"stars":2.0,"new_name":"Wendy's"},{"name":"Bojangles' Famous Chicken 'n Biscuits","city":"Charlotte","latitude":35.3414126,"longitude":-80.769465,"stars":2.5,"new_name":"Bojangles"},{"name":"Subway","city":"Charlotte","latitude":35.3432482,"longitude":-80.7690779,"stars":2.5,"new_name":"Subway"},{"name":"McDonald's","city":"Charlotte","latitude":35.0518585,"longitude":-80.7687911,"stars":3.0,"new_name":"McDonald's"},{"name":"Chick-fil-A","city":"Charlotte","latitude":35.0524851367,"longitude":-80.7687394094,"stars":4.0,"new_name":"Chick-fil-A"},{"name":"Pizza Hut","city":"Charlotte","latitude":35.278121,"longitude":-80.766662,"stars":1.0,"new_name":"Pizza Hut"},{"name":"McDonald Group- Wilkinson and Associates ERA","city":"Charlotte","latitude":35.061445,"longitude":-80.766085,"stars":5.0,"new_name":"NA"},{"name":"McDonald's","city":"Davidson","latitude":35.4422136,"longitude":-80.7625269,"stars":1.5,"new_name":"McDonald's"},{"name":"Subway","city":"Matthews","latitude":35.0234912,"longitude":-80.760752,"stars":2.0,"new_name":"Subway"},{"name":"McDonald's","city":"Charlotte","latitude":35.1832871,"longitude":-80.7593386,"stars":2.0,"new_name":"McDonald's"},{"name":"Taco Bell","city":"Charlotte","latitude":35.207085,"longitude":-80.758012,"stars":2.0,"new_name":"Taco Bell"},{"name":"McDonald's","city":"Waxhaw","latitude":34.956814,"longitude":-80.756978,"stars":1.5,"new_name":"McDonald's"},{"name":"McDonald's","city":"Charlotte","latitude":35.183472,"longitude":-80.756938,"stars":2.5,"new_name":"McDonald's"},{"name":"Burger King","city":"Charlotte","latitude":35.209337,"longitude":-80.7568843,"stars":2.0,"new_name":"Burger King"},{"name":"Bojangles' Famous Chicken 'n Biscuits","city":"Charlotte","latitude":35.184415,"longitude":-80.7563629,"stars":3.0,"new_name":"Bojangles"},{"name":"Taco Bell","city":"Waxhaw","latitude":34.9555896347,"longitude":-80.7559300158,"stars":3.0,"new_name":"Taco Bell"},{"name":"Subway","city":"Charlotte","latitude":35.294772,"longitude":-80.755847,"stars":2.5,"new_name":"Subway"},{"name":"Taco Bell","city":"Charlotte","latitude":35.29543,"longitude":-80.75521,"stars":1.5,"new_name":"Taco Bell"},{"name":"Wendy's","city":"Charlotte","latitude":35.1796815,"longitude":-80.7536019,"stars":2.0,"new_name":"Wendy's"},{"name":"Taco Bell","city":"Charlotte","latitude":35.3103321867,"longitude":-80.7535075848,"stars":3.0,"new_name":"Taco Bell"},{"name":"Chick-fil-A","city":"Charlotte","latitude":35.31032,"longitude":-80.752236,"stars":3.5,"new_name":"Chick-fil-A"},{"name":"Burger King","city":"Charlotte","latitude":35.303471,"longitude":-80.7520571,"stars":3.0,"new_name":"Burger King"},{"name":"Pizza Hut","city":"Charlotte","latitude":35.2465644,"longitude":-80.7520571,"stars":1.0,"new_name":"Pizza Hut"},{"name":"Bojangles' Famous Chicken 'n Biscuits","city":"Charlotte","latitude":35.3045295,"longitude":-80.7511695,"stars":3.0,"new_name":"Bojangles"},{"name":"Bojangles' Famous Chicken 'n Biscuits","city":"Charlotte","latitude":35.1772696,"longitude":-80.7508267,"stars":2.5,"new_name":"Bojangles"},{"name":"Subway","city":"Waxhaw","latitude":34.9386813,"longitude":-80.7508015,"stars":4.5,"new_name":"Subway"},{"name":"Bojangles' Famous Chicken 'n Biscuits","city":"Waxhaw","latitude":34.934893,"longitude":-80.749975,"stars":2.0,"new_name":"Bojangles"},{"name":"Burger King","city":"Waxhaw","latitude":34.93508,"longitude":-80.7489398,"stars":2.5,"new_name":"Burger King"},{"name":"McDonald's","city":"Charlotte","latitude":35.3085578683,"longitude":-80.7482901297,"stars":1.5,"new_name":"McDonald's"},{"name":"McDonald's","city":"Charlotte","latitude":35.2946040657,"longitude":-80.7480016351,"stars":1.5,"new_name":"McDonald's"},{"name":"Pizza Hut","city":"Waxhaw","latitude":34.9245482185,"longitude":-80.7449110597,"stars":2.5,"new_name":"Pizza Hut"},{"name":"Pizza Hut","city":"Charlotte","latitude":35.2944085,"longitude":-80.7447832,"stars":1.5,"new_name":"Pizza Hut"},{"name":"Subway","city":"Concord","latitude":35.419335,"longitude":-80.743126,"stars":2.5,"new_name":"Subway"},{"name":"Pizza Hut","city":"Charlotte","latitude":35.2026783,"longitude":-80.74028,"stars":1.5,"new_name":"Pizza Hut"},{"name":"Pizza Hut","city":"Charlotte","latitude":35.1408488,"longitude":-80.7402718,"stars":2.5,"new_name":"Pizza Hut"},{"name":"Subway","city":"Charlotte","latitude":35.296079,"longitude":-80.738818,"stars":3.5,"new_name":"Subway"},{"name":"Wendy's","city":"Charlotte","latitude":35.235859,"longitude":-80.7386995,"stars":2.0,"new_name":"Wendy's"},{"name":"Wendy's","city":"Charlotte","latitude":35.23587,"longitude":-80.73816,"stars":"","new_name":"Wendy's"},{"name":"McDonald's","city":"Charlotte","latitude":35.1386008,"longitude":-80.7380885,"stars":2.0,"new_name":"McDonald's"},{"name":"McDonald's","city":"Charlotte","latitude":35.2033796,"longitude":-80.7380499,"stars":1.5,"new_name":"McDonald's"},{"name":"Burger King","city":"Charlotte","latitude":35.1400686858,"longitude":-80.7369133042,"stars":1.5,"new_name":"Burger King"},{"name":"Bojangles' Famous Chicken 'n Biscuits","city":"Charlotte","latitude":35.134659,"longitude":-80.736323,"stars":2.5,"new_name":"Bojangles"},{"name":"Wendy's","city":"Charlotte","latitude":35.1403487,"longitude":-80.7362745,"stars":3.0,"new_name":"Wendy's"},{"name":"McDonald's","city":"Charlotte","latitude":35.2362324891,"longitude":-80.7357917472,"stars":2.0,"new_name":"McDonald's"},{"name":"Taco Bell","city":"Charlotte","latitude":35.20255,"longitude":-80.73531,"stars":1.5,"new_name":"Taco Bell"},{"name":"Wendy's","city":"Charlotte","latitude":35.2023732,"longitude":-80.7343671,"stars":3.0,"new_name":"Wendy's"},{"name":"Subway","city":"Charlotte","latitude":35.1375383,"longitude":-80.7343475,"stars":2.0,"new_name":"Subway"},{"name":"Taco Bell","city":"Charlotte","latitude":35.1408015,"longitude":-80.7339845,"stars":2.5,"new_name":"Taco Bell"},{"name":"McDonald's","city":"Concord","latitude":35.373526584,"longitude":-80.7326023465,"stars":1.5,"new_name":"McDonald's"},{"name":"Subway","city":"Matthews","latitude":35.0820111,"longitude":-80.732422,"stars":1.0,"new_name":"Subway"},{"name":"Subway","city":"Charlotte","latitude":35.224545,"longitude":-80.7274185,"stars":2.5,"new_name":"Subway"},{"name":"Bojangles' Famous Chicken 'n Biscuits","city":"Charlotte","latitude":35.2031629,"longitude":-80.7254696,"stars":2.0,"new_name":"Bojangles"},{"name":"Burger King","city":"Concord","latitude":35.3731896,"longitude":-80.7249715,"stars":2.0,"new_name":"Burger King"},{"name":"Burger King","city":"Concord","latitude":35.3700689,"longitude":-80.7239298,"stars":2.5,"new_name":"Burger King"},{"name":"Burger King","city":"Charlotte","latitude":35.2029998,"longitude":-80.7225895,"stars":3.0,"new_name":"Burger King"},{"name":"Subway","city":"Matthews","latitude":35.1168162,"longitude":-80.7193473,"stars":3.0,"new_name":"Subway"},{"name":"Chick-fil-A","city":"Concord","latitude":35.37173,"longitude":-80.717495,"stars":3.5,"new_name":"Chick-fil-A"},{"name":"McDonald's","city":"Matthews","latitude":35.136321,"longitude":-80.713748,"stars":2.5,"new_name":"McDonald's"},{"name":"McDonald's","city":"Matthews","latitude":35.1363,"longitude":-80.7137,"stars":"","new_name":"McDonald's"},{"name":"Wendy's","city":"Charlotte","latitude":35.3118386,"longitude":-80.7130172,"stars":1.5,"new_name":"Wendy's"},{"name":"Subway","city":"Matthews","latitude":35.1355461,"longitude":-80.7128656,"stars":1.5,"new_name":"Subway"},{"name":"McDonald's","city":"Concord","latitude":35.3668568917,"longitude":-80.7122719288,"stars":2.0,"new_name":"McDonald's"},{"name":"Chick-fil-A","city":"Matthews","latitude":35.132346,"longitude":-80.712099,"stars":3.5,"new_name":"Chick-fil-A"},{"name":"Subway","city":"Concord","latitude":35.364907,"longitude":-80.711399,"stars":1.0,"new_name":"Subway"},{"name":"Taco Bell","city":"Concord","latitude":35.369405,"longitude":-80.7095,"stars":2.0,"new_name":"Taco Bell"},{"name":"Wendy's","city":"Concord","latitude":35.365052,"longitude":-80.709187,"stars":1.5,"new_name":"Wendy's"},{"name":"Bojangles' Famous Chicken 'n Biscuits","city":"Concord","latitude":35.3653895,"longitude":-80.7076031,"stars":1.5,"new_name":"Bojangles"},{"name":"Burger King Restaurant","city":"Matthews","latitude":35.1270496,"longitude":-80.7020615,"stars":2.0,"new_name":"Burger King"},{"name":"McDonald's","city":"Wesley Chapel","latitude":35.00152,"longitude":-80.7005413,"stars":1.5,"new_name":"McDonald's"},{"name":"Bojangles' Famous Chicken 'n Biscuits","city":"Matthews","latitude":35.1198054,"longitude":-80.6979419,"stars":2.5,"new_name":"Bojangles"},{"name":"Wendy's","city":"Matthews","latitude":35.1194771,"longitude":-80.697552,"stars":2.5,"new_name":"Wendy's"},{"name":"Taco Bell","city":"Charlotte","latitude":35.21064,"longitude":-80.69726,"stars":2.0,"new_name":"Taco Bell"},{"name":"Burger King","city":"Matthews","latitude":35.0854821,"longitude":-80.6970021,"stars":1.5,"new_name":"Burger King"},{"name":"McDonald's","city":"Stallings","latitude":35.085671851,"longitude":-80.6960491743,"stars":1.5,"new_name":"McDonald's"},{"name":"Pizza Hut","city":"Matthews","latitude":35.1178263,"longitude":-80.6960262,"stars":3.0,"new_name":"Pizza Hut"},{"name":"McDonald's","city":"Matthews","latitude":35.08566,"longitude":-80.69602,"stars":"","new_name":"McDonald's"},{"name":"Chick-fil-A","city":"Matthews","latitude":35.000414,"longitude":-80.695072,"stars":3.5,"new_name":"Chick-fil-A"},{"name":"Taco Bell","city":"Mint Hill","latitude":35.18742,"longitude":-80.691017,"stars":1.5,"new_name":"Taco Bell"},{"name":"Chick-fil-A","city":"Charlotte","latitude":35.211124,"longitude":-80.690954,"stars":4.0,"new_name":"Chick-fil-A"},{"name":"Bojangles' Famous Chicken 'n Biscuits","city":"Mint Hill","latitude":35.1885393,"longitude":-80.6906631,"stars":2.5,"new_name":"Bojangles"},{"name":"Subway","city":"Charlotte","latitude":35.2122069,"longitude":-80.6904682,"stars":2.0,"new_name":"Subway"},{"name":"McDonald's","city":"Mint Hill","latitude":35.1868927298,"longitude":-80.689753443,"stars":2.0,"new_name":"McDonald's"},{"name":"Pizza Hut","city":"Mint Hill","latitude":35.1875233,"longitude":-80.6874494,"stars":1.5,"new_name":"Pizza Hut"},{"name":"Subway","city":"Matthews","latitude":35.1377963,"longitude":-80.6836302,"stars":3.0,"new_name":"Subway"},{"name":"Pizza Hut","city":"Kannapolis","latitude":35.4367769658,"longitude":-80.6797029963,"stars":2.0,"new_name":"Pizza Hut"},{"name":"McDonald's","city":"Kannapolis","latitude":35.420302,"longitude":-80.675624,"stars":2.0,"new_name":"McDonald's"},{"name":"Chick-fil-A","city":"Concord","latitude":35.419773,"longitude":-80.675218,"stars":3.5,"new_name":"Chick-fil-A"},{"name":"Pizza Hut","city":"Harrisburg","latitude":35.3199107,"longitude":-80.6687195,"stars":3.5,"new_name":"Pizza Hut"},{"name":"Subway","city":"Charlotte","latitude":35.283028,"longitude":-80.668567,"stars":2.0,"new_name":"Subway"},{"name":"Bojangles Restaurant","city":"Charlotte","latitude":35.2840228,"longitude":-80.6675011,"stars":1.5,"new_name":"Bojangles"},{"name":"Bojangles' Famous Chicken 'n Biscuits","city":"Concord","latitude":35.4140461,"longitude":-80.6664857,"stars":2.5,"new_name":"Bojangles"},{"name":"Taco Bell","city":"Concord","latitude":35.368055,"longitude":-80.666222,"stars":1.5,"new_name":"Taco Bell"},{"name":"Subway","city":"Concord","latitude":35.3692136,"longitude":-80.6640323,"stars":2.5,"new_name":"Subway"},{"name":"Mcdonalds","city":"Yadkinville","latitude":36.1207,"longitude":-80.6616,"stars":"","new_name":"McDonald's"},{"name":"Taco Bell","city":"Indian Trail","latitude":35.08382,"longitude":-80.66064,"stars":2.5,"new_name":"Taco Bell"},{"name":"Taco Bell","city":"Yadkinville","latitude":36.123313,"longitude":-80.660009,"stars":"","new_name":"Taco Bell"},{"name":"Wendy's","city":"Indian Trail","latitude":35.0824321,"longitude":-80.6598512,"stars":4.5,"new_name":"Wendy's"},{"name":"Chick-fil-A","city":"Indian Trail","latitude":35.083821,"longitude":-80.659603,"stars":4.0,"new_name":"Chick-fil-A"},{"name":"Bojangles' Famous Chicken 'n Biscuits","city":"Indian Trail","latitude":35.081969,"longitude":-80.65952,"stars":2.0,"new_name":"Bojangles"},{"name":"Wendy's","city":"Mint Hill","latitude":35.1723448,"longitude":-80.6592503,"stars":1.5,"new_name":"Wendy's"},{"name":"Burger King","city":"Mint Hill","latitude":35.17282,"longitude":-80.65732,"stars":2.0,"new_name":"Burger King"},{"name":"Wendy's","city":"Charlotte","latitude":35.251244158,"longitude":-80.65713644,"stars":"","new_name":"Wendy's"},{"name":"Wendy's","city":"Charlotte","latitude":35.251223,"longitude":-80.657064,"stars":1.5,"new_name":"Wendy's"},{"name":"Bojangles","city":"Harrisburg","latitude":35.3217744,"longitude":-80.6565787,"stars":2.5,"new_name":"Bojangles"},{"name":"Subway","city":"Mint Hill","latitude":35.1759042827,"longitude":-80.6538534164,"stars":3.0,"new_name":"Subway"},{"name":"McDonald's","city":"Concord","latitude":35.435347,"longitude":-80.6533619016,"stars":3.0,"new_name":"McDonald's"},{"name":"McDonald's","city":"Indian Trail","latitude":35.0768908,"longitude":-80.6518543,"stars":2.5,"new_name":"McDonald's"},{"name":"Taco Bell","city":"Harrisburg","latitude":35.32223,"longitude":-80.64847,"stars":3.0,"new_name":"Taco Bell"},{"name":"McDonald's","city":"Indian Trail","latitude":35.04917,"longitude":-80.64826,"stars":"","new_name":"McDonald's"},{"name":"Bojangles' Chicken And Biscuits","city":"Indian Trail","latitude":35.0489841,"longitude":-80.6482181,"stars":1.5,"new_name":"Bojangles"},{"name":"Subway","city":"Harrisburg","latitude":35.323857,"longitude":-80.6477947,"stars":5.0,"new_name":"Subway"},{"name":"McDonald's","city":"Indian Trail","latitude":35.0492660251,"longitude":-80.6475857645,"stars":1.0,"new_name":"McDonald's"},{"name":"Pizza Hut","city":"Indian Trail","latitude":35.0473602,"longitude":-80.6465218,"stars":3.5,"new_name":"Pizza Hut"},{"name":"McDonald's","city":"Harrisburg","latitude":35.3229451964,"longitude":-80.6459201127,"stars":2.0,"new_name":"McDonald's"},{"name":"Bojangles' Famous Chicken 'n Biscuits","city":"Charlotte","latitude":35.2239926,"longitude":-80.631781,"stars":2.5,"new_name":"Bojangles"},{"name":"Pizza Hut","city":"Kannapolis","latitude":35.4961609,"longitude":-80.6283339,"stars":4.0,"new_name":"Pizza Hut"},{"name":"Taco Bell","city":"Concord","latitude":35.39127,"longitude":-80.62594,"stars":"","new_name":"Taco Bell"},{"name":"Subway","city":"Matthews","latitude":35.1415282,"longitude":-80.6251282,"stars":3.0,"new_name":"Subway"},{"name":"Chick-fil-A","city":"Concord","latitude":35.391148,"longitude":-80.624909,"stars":3.5,"new_name":"Chick-fil-A"},{"name":"McDonald's","city":"Matthews","latitude":35.1418,"longitude":-80.6237,"stars":"","new_name":"McDonald's"},{"name":"McDonald's","city":"Matthews","latitude":35.1417921019,"longitude":-80.6236691773,"stars":2.5,"new_name":"McDonald's"},{"name":"Taco Bell","city":"Mount Airy","latitude":36.47578,"longitude":-80.61961,"stars":"","new_name":"Taco Bell"},{"name":"Burger King","city":"Mount Airy","latitude":36.4786,"longitude":-80.61704,"stars":"","new_name":"Burger King"},{"name":"Bojangles","city":"Concord","latitude":35.3952363,"longitude":-80.6165281,"stars":2.5,"new_name":"Bojangles"},{"name":"Bojangles' Famous Chicken 'n Biscuits","city":"Mount Airy","latitude":36.48605,"longitude":-80.61622,"stars":"","new_name":"Bojangles"},{"name":"Wendy's","city":"Mount Airy","latitude":36.481889,"longitude":-80.614612,"stars":"","new_name":"Wendy's"},{"name":"McDonald's","city":"Mount Airy","latitude":36.48386,"longitude":-80.61388,"stars":"","new_name":"McDonald's"},{"name":"Taco Bell","city":"Kannapolis","latitude":35.479334,"longitude":-80.612143,"stars":2.5,"new_name":"Taco Bell"},{"name":"Wendy's","city":"Kannapolis","latitude":35.4796233,"longitude":-80.612072,"stars":1.5,"new_name":"Wendy's"},{"name":"Wendy's","city":"Kannapolis","latitude":35.479738,"longitude":-80.612037,"stars":"","new_name":"Wendy's"},{"name":"McDonald's","city":"Kannapolis","latitude":35.4906493238,"longitude":-80.6115576625,"stars":1.5,"new_name":"McDonald's"},{"name":"Bojangles","city":"Kannapolis","latitude":35.4771829,"longitude":-80.610966,"stars":3.0,"new_name":"Bojangles"},{"name":"Burger King","city":"Concord","latitude":35.399362,"longitude":-80.60906,"stars":2.5,"new_name":"Burger King"},{"name":"Taco Bell","city":"Concord","latitude":35.429263,"longitude":-80.60871,"stars":1.5,"new_name":"Taco Bell"},{"name":"Pizza Hut","city":"Concord","latitude":35.3966113,"longitude":-80.6083638,"stars":3.0,"new_name":"Pizza Hut"},{"name":"McDonald's","city":"Concord","latitude":35.3967509454,"longitude":-80.6077703834,"stars":1.5,"new_name":"McDonald's"},{"name":"McDonald's","city":"Concord","latitude":35.4399383,"longitude":-80.6075277,"stars":2.0,"new_name":"McDonald's"},{"name":"Wendy's","city":"Concord","latitude":35.4403426,"longitude":-80.6068409,"stars":2.0,"new_name":"Wendy's"},{"name":"McDonald's","city":"Mount Airy","latitude":36.5041,"longitude":-80.6066,"stars":"","new_name":"McDonald's"},{"name":"Chick-fil-A","city":"Concord","latitude":35.438307,"longitude":-80.605827,"stars":4.0,"new_name":"Chick-fil-A"},{"name":"Chick-fil-A","city":"Concord","latitude":35.4378,"longitude":-80.6051,"stars":"","new_name":"Chick-fil-A"},{"name":"Subway","city":"Concord","latitude":35.4401015,"longitude":-80.6038977,"stars":2.5,"new_name":"Subway"},{"name":"Chick-Fil-A","city":"Concord","latitude":35.44092,"longitude":-80.60341,"stars":"","new_name":"Chick-fil-A"},{"name":"Chick-fil-A","city":"Concord","latitude":35.440287,"longitude":-80.603009,"stars":4.0,"new_name":"Chick-fil-A"},{"name":"Pizza Hut","city":"Concord","latitude":35.4285728,"longitude":-80.5994505,"stars":2.5,"new_name":"Pizza Hut"},{"name":"Taco Bell","city":"Kannapolis","latitude":35.465104,"longitude":-80.590293,"stars":"","new_name":"Taco Bell"},{"name":"Chick-fil-A","city":"Monroe","latitude":35.016181,"longitude":-80.571287,"stars":4.5,"new_name":"Chick-fil-A"},{"name":"Taco Bell","city":"Monroe","latitude":35.010626,"longitude":-80.564557,"stars":2.0,"new_name":"Taco Bell"},{"name":"Subway","city":"Monroe","latitude":35.0060493,"longitude":-80.562575,"stars":4.0,"new_name":"Subway"},{"name":"Bojangles","city":"Monroe","latitude":35.008003,"longitude":-80.560377,"stars":2.0,"new_name":"Bojangles"},{"name":"Subway","city":"Concord","latitude":35.3871919,"longitude":-80.5602967,"stars":1.5,"new_name":"Subway"},{"name":"Pizza Hut","city":"Monroe","latitude":35.0054658,"longitude":-80.5583195,"stars":3.5,"new_name":"Pizza Hut"},{"name":"Taco Bell","city":"Monroe","latitude":35.006164,"longitude":-80.557738,"stars":"","new_name":"Taco Bell"},{"name":"Burger King","city":"Monroe","latitude":35.0055211831,"longitude":-80.5569452047,"stars":4.5,"new_name":"Burger King"},{"name":"Pizza Hut","city":"Concord","latitude":35.3703445928,"longitude":-80.5502068687,"stars":3.5,"new_name":"Pizza Hut"},{"name":"McDonald's","city":"Concord","latitude":35.3713970643,"longitude":-80.5493460837,"stars":1.5,"new_name":"McDonald's"},{"name":"Bojangles' Famous Chicken 'n Biscuits","city":"Concord","latitude":35.3708771,"longitude":-80.5489789,"stars":3.0,"new_name":"Bojangles"},{"name":"Taco Bell","city":"Monroe","latitude":34.985785,"longitude":-80.529603,"stars":"","new_name":"Taco Bell"},{"name":"Bojangles' Famous Chicken 'n Biscuits","city":"Salisbury","latitude":35.613199,"longitude":-80.520824,"stars":"","new_name":"Bojangles"},{"name":"Bojangles' Famous Chicken 'n Biscuits","city":"Salisbury","latitude":35.691988,"longitude":-80.512696,"stars":"","new_name":"Bojangles"},{"name":"McDonald's","city":"Salisbury","latitude":35.6628,"longitude":-80.5006,"stars":"","new_name":"McDonald's"},{"name":"Wendy's","city":"Salisbury","latitude":35.644,"longitude":-80.4846,"stars":"","new_name":"Wendy's"},{"name":"Bojangles' Famous Chicken 'n Biscuits","city":"Salisbury","latitude":35.6595,"longitude":-80.462,"stars":"","new_name":"Bojangles"},{"name":"McDonald's","city":"Locust","latitude":35.2548440324,"longitude":-80.4584299269,"stars":2.0,"new_name":"McDonald's"},{"name":"Bojangles' Famous Chicken 'n Biscuits","city":"Locust","latitude":35.254967,"longitude":-80.451759,"stars":"","new_name":"Bojangles"},{"name":"Bojangles","city":"Locust","latitude":35.2549529,"longitude":-80.4517366,"stars":3.0,"new_name":"Bojangles"},{"name":"Taco Bell","city":"Locust","latitude":35.2549,"longitude":-80.45043,"stars":1.5,"new_name":"Taco Bell"},{"name":"Mcdonald's","city":"Wingate","latitude":34.982947829,"longitude":-80.448555621,"stars":"","new_name":"McDonald's"},{"name":"Bojangles' Famous Chicken 'n Biscuits","city":"Advance","latitude":36.0044,"longitude":-80.4397,"stars":"","new_name":"Bojangles"},{"name":"Bojangles' Famous Chicken 'n Biscuits","city":"Spencer","latitude":35.693279,"longitude":-80.425686,"stars":"","new_name":"Bojangles"},{"name":"McDonalds","city":"Winston Salem","latitude":36.12142,"longitude":-80.36848,"stars":"","new_name":"McDonald's"},{"name":"Wendy's","city":"Winston Salem","latitude":36.071,"longitude":-80.3401,"stars":"","new_name":"Wendy's"},{"name":"Taco Bell","city":"Winston Salem","latitude":36.156151,"longitude":-80.316442,"stars":"","new_name":"Taco Bell"},{"name":"McDonald's","city":"Winston Salem","latitude":36.06513,"longitude":-80.30183,"stars":"","new_name":"McDonald's"},{"name":"McDonald's","city":"Winston Salem","latitude":36.15126,"longitude":-80.28328,"stars":"","new_name":"McDonald's"},{"name":"Taco Bell","city":"Winston Salem","latitude":36.151544,"longitude":-80.279716,"stars":"","new_name":"Taco Bell"},{"name":"Chick-fil-A","city":"Winston Salem","latitude":36.189823,"longitude":-80.27406,"stars":"","new_name":"Chick-fil-A"},{"name":"Taco Bell","city":"Richfield","latitude":35.47274,"longitude":-80.2687,"stars":"","new_name":"Taco Bell"},{"name":"McDonald's","city":"Winston Salem","latitude":35.9946,"longitude":-80.268,"stars":"","new_name":"McDonald's"},{"name":"McDonalds","city":"Lexington","latitude":35.78394,"longitude":-80.26021,"stars":"","new_name":"McDonald's"},{"name":"Wendy's","city":"Lexington","latitude":35.7791,"longitude":-80.2598,"stars":"","new_name":"Wendy's"},{"name":"McDonald's","city":"Lexington","latitude":35.77711,"longitude":-80.25885,"stars":"","new_name":"McDonald's"},{"name":"McDonalds","city":"Lexington","latitude":35.83683,"longitude":-80.25362,"stars":"","new_name":"McDonald's"},{"name":"Bojangles' Famous Chicken 'n Biscuits","city":"Lexington","latitude":35.9123,"longitude":-80.2536,"stars":"","new_name":"Bojangles"},{"name":"Subway","city":"Albemarle","latitude":35.386854658,"longitude":-80.193660707,"stars":"","new_name":"Subway"},{"name":"Taco Bell","city":"Albemarle","latitude":35.347539,"longitude":-80.166738,"stars":"","new_name":"Taco Bell"},{"name":"Bojangles' Famous Chicken 'n Biscuits","city":"Walnut Cove","latitude":36.312657,"longitude":-80.140076,"stars":"","new_name":"Bojangles"},{"name":"Wendy's","city":"Walkertown","latitude":36.1637,"longitude":-80.1386,"stars":"","new_name":"Wendy's"},{"name":"Bojangles' Famous Chicken 'n Biscuits","city":"Kernersville","latitude":36.072526076,"longitude":-80.111235769,"stars":"","new_name":"Bojangles"},{"name":"Wendy's","city":"Wadesboro","latitude":34.9677,"longitude":-80.07376,"stars":"","new_name":"Wendy's"},{"name":"Wendy's","city":"Kernersville","latitude":36.0277,"longitude":-80.058,"stars":"","new_name":"Wendy's"},{"name":"McDonald's","city":"High Point","latitude":36.00568,"longitude":-80.03833,"stars":"","new_name":"McDonald's"},{"name":"Wendy's","city":"High Point","latitude":35.98198,"longitude":-80.02219,"stars":"","new_name":"Wendy's"},{"name":"Wendy's","city":"Oak Ridge","latitude":36.173276,"longitude":-79.990748,"stars":"","new_name":"Wendy's"},{"name":"Bojangles' Famous Chicken 'n Biscuits","city":"High Point","latitude":35.926111,"longitude":-79.984108,"stars":"","new_name":"Bojangles"},{"name":"Bojangles' Famous Chicken 'n Biscuits","city":"Greensboro","latitude":36.10237896,"longitude":-79.962239286,"stars":"","new_name":"Bojangles"},{"name":"Bojangles' Famous Chicken 'n Biscuits","city":"Greensboro","latitude":36.073073,"longitude":-79.959841,"stars":"","new_name":"Bojangles"},{"name":"Wendy's","city":"High Point","latitude":35.90224586,"longitude":-79.951976,"stars":"","new_name":"Wendy's"},{"name":"Bojangles' Famous Chicken 'n Biscuits","city":"High Point","latitude":35.901889,"longitude":-79.948915,"stars":"","new_name":"Bojangles"},{"name":"Wendy's","city":"Randleman","latitude":35.8219,"longitude":-79.8244,"stars":"","new_name":"Wendy's"},{"name":"Taco Bell","city":"Randleman","latitude":35.822361,"longitude":-79.823223,"stars":"","new_name":"Taco Bell"},{"name":"Bojangles' Famous Chicken 'n Biscuits","city":"Randleman","latitude":35.821937,"longitude":-79.823173,"stars":"","new_name":"Bojangles"},{"name":"Bojangles' Famous Chicken 'n Biscuits","city":"Asheboro","latitude":35.6873,"longitude":-79.8224,"stars":"","new_name":"Bojangles"},{"name":"Bojangles' Famous Chicken 'n Biscuits","city":"Biscoe","latitude":35.361,"longitude":-79.7701,"stars":"","new_name":"Bojangles"},{"name":"McDonald's","city":"Rockingham","latitude":34.9208,"longitude":-79.7492,"stars":"","new_name":"McDonald's"},{"name":"Bojangles' Famous Chicken 'n Biscuits","city":"Eden","latitude":36.491139,"longitude":-79.740363,"stars":"","new_name":"Bojangles"},{"name":"Taco Bell","city":"Eden","latitude":36.488783,"longitude":-79.739254,"stars":"","new_name":"Taco Bell"},{"name":"Wendy's","city":"Reidsville","latitude":36.3385,"longitude":-79.6938,"stars":"","new_name":"Wendy's"},{"name":"Bojangles' Famous Chicken 'n Biscuits","city":"Reidsville","latitude":36.34961,"longitude":-79.69353,"stars":"","new_name":"Bojangles"},{"name":"Bojangles' Famous Chicken 'n Biscuits","city":"Reidsville","latitude":36.349576,"longitude":-79.693458,"stars":"","new_name":"Bojangles"},{"name":"Taco Bell","city":"Reidsville","latitude":36.347821,"longitude":-79.692926,"stars":"","new_name":"Taco Bell"},{"name":"McDonald's","city":"Reidsville","latitude":36.35296,"longitude":-79.66401,"stars":"","new_name":"McDonald's"},{"name":"Burger King","city":"Ramseur","latitude":35.73913,"longitude":-79.64961,"stars":"","new_name":"Burger King"},{"name":"Bojangles' Famous Chicken 'n Biscuits","city":"Whitsett","latitude":36.0634,"longitude":-79.6076,"stars":"","new_name":"Bojangles"},{"name":"Bojangles' Famous Chicken 'n Biscuits","city":"Burlington","latitude":36.071098,"longitude":-79.494643,"stars":"","new_name":"Bojangles"},{"name":"McDonalds","city":"Burlington","latitude":36.07399,"longitude":-79.4908,"stars":"","new_name":"McDonald's"},{"name":"Taco Bell","city":"Laurinburg","latitude":34.760626,"longitude":-79.487148,"stars":"","new_name":"Taco Bell"},{"name":"Wendy's","city":"Laurinburg","latitude":34.754263,"longitude":-79.477012,"stars":"","new_name":"Wendy's"},{"name":"Burger King","city":"Laurinburg","latitude":34.75896,"longitude":-79.47058,"stars":"","new_name":"Burger King"},{"name":"McDonalds","city":"Laurinburg","latitude":34.7605,"longitude":-79.46914,"stars":"","new_name":"McDonald's"},{"name":"Bojangles' Famous Chicken 'n Biscuits","city":"Siler City","latitude":35.733422,"longitude":-79.43472,"stars":"","new_name":"Bojangles"},{"name":"Bojangles' Famous Chicken 'n Biscuits","city":"Burlington","latitude":36.066331,"longitude":-79.429866,"stars":"","new_name":"Bojangles"},{"name":"Bojangles' Famous Chicken 'n Biscuits","city":"Carthage","latitude":35.342137,"longitude":-79.399282,"stars":"","new_name":"Bojangles"},{"name":"McDonald's","city":"Red Springs","latitude":34.81114,"longitude":-79.17371,"stars":"","new_name":"McDonald's"},{"name":"McDonald's","city":"Pittsboro","latitude":35.74439,"longitude":-79.167,"stars":"","new_name":"McDonald's"},{"name":"Taco Bell","city":"Pittsboro","latitude":35.74577,"longitude":-79.1667,"stars":"","new_name":"Taco Bell"},{"name":"McDonald's","city":"Hillsborough","latitude":36.05675,"longitude":-79.08362,"stars":"","new_name":"McDonald's"},{"name":"McDonald's","city":"Fayetteville","latitude":34.98144,"longitude":-79.01292,"stars":"","new_name":"McDonald's"},{"name":"Burger King","city":"Fort Bragg","latitude":35.131891054,"longitude":-78.99660778,"stars":"","new_name":"Burger King"},{"name":"Subway","city":"Durham","latitude":35.952461,"longitude":-78.989629,"stars":"","new_name":"Subway"},{"name":"Burger King","city":"Saint Pauls","latitude":34.80965,"longitude":-78.98403,"stars":"","new_name":"Burger King"},{"name":"Subway","city":"Spring Lake","latitude":35.175404,"longitude":-78.96876,"stars":"","new_name":"Subway"},{"name":"McDonald's","city":"Fayetteville","latitude":35.07072,"longitude":-78.96625,"stars":"","new_name":"McDonald's"},{"name":"McDonald's","city":"Durham","latitude":35.97017,"longitude":-78.95842,"stars":"","new_name":"McDonald's"},{"name":"Burger King","city":"Fayetteville","latitude":35.074232,"longitude":-78.926887,"stars":"","new_name":"Burger King"},{"name":"Wendy's","city":"Durham","latitude":35.9472,"longitude":-78.9229,"stars":"","new_name":"Wendy's"},{"name":"McDonald's","city":"Durham","latitude":35.99852,"longitude":-78.8995,"stars":"","new_name":"McDonald's"},{"name":"McDonald's","city":"Durham","latitude":36.0167,"longitude":-78.8896,"stars":"","new_name":"McDonald's"},{"name":"McDonald's","city":"Fayetteville","latitude":34.9293,"longitude":-78.85539,"stars":"","new_name":"McDonald's"},{"name":"Subway","city":"Durham","latitude":36.02851,"longitude":-78.84378,"stars":"","new_name":"Subway"},{"name":"Burger King","city":"Apex","latitude":35.71660341,"longitude":-78.841087323,"stars":"","new_name":"Burger King"},{"name":"Wendy's","city":"Durham","latitude":35.945105,"longitude":-78.83801,"stars":"","new_name":"Wendy's"},{"name":"Taco Bell","city":"Morrisville","latitude":35.85625,"longitude":-78.8248,"stars":"","new_name":"Taco Bell"},{"name":"McDonalds","city":"Apex","latitude":35.74449,"longitude":-78.82144,"stars":"","new_name":"McDonald's"},{"name":"McDonalds","city":"Lillington","latitude":35.41864,"longitude":-78.80364,"stars":"","new_name":"McDonald's"},{"name":"McDonald's","city":"Cary","latitude":35.7623,"longitude":-78.783,"stars":"","new_name":"McDonald's"},{"name":"Taco Bell","city":"Cary","latitude":35.769625,"longitude":-78.7822,"stars":"","new_name":"Taco Bell"},{"name":"Mcdonald's","city":"Cary","latitude":35.738998,"longitude":-78.780296,"stars":"","new_name":"McDonald's"},{"name":"Bojangles' Famous Chicken 'n Biscuits","city":"Fuquay Varina","latitude":35.592243,"longitude":-78.77333,"stars":"","new_name":"Bojangles"},{"name":"Burger King","city":"Cary","latitude":35.8289,"longitude":-78.7702,"stars":"","new_name":"Burger King"},{"name":"McDonald's","city":"Cary","latitude":35.77675,"longitude":-78.764186,"stars":"","new_name":"McDonald's"},{"name":"McDonald's","city":"Raleigh","latitude":35.90928,"longitude":-78.727544,"stars":"","new_name":"McDonald's"},{"name":"Burger King","city":"Raleigh","latitude":35.8626,"longitude":-78.7121,"stars":"","new_name":"Burger King"},{"name":"Wendy's","city":"Raleigh","latitude":35.8993,"longitude":-78.6813,"stars":"","new_name":"Wendy's"},{"name":"McDonald's","city":"Raleigh","latitude":35.8191,"longitude":-78.6248,"stars":"","new_name":"McDonald's"},{"name":"McDonald's","city":"Elizabethtown","latitude":34.62455,"longitude":-78.60812,"stars":"","new_name":"McDonald's"},{"name":"Bojangles' Famous Chicken 'n Biscuits","city":"Dunn","latitude":35.302124,"longitude":-78.60114,"stars":"","new_name":"Bojangles"},{"name":"Taco Bell","city":"Oxford","latitude":36.2984,"longitude":-78.5848,"stars":"","new_name":"Taco Bell"},{"name":"Taco Bell","city":"Oxford","latitude":36.298495893,"longitude":-78.584795174,"stars":"","new_name":"Taco Bell"},{"name":"McDonalds","city":"Garner","latitude":35.69258,"longitude":-78.58276,"stars":"","new_name":"McDonald's"},{"name":"Burger King","city":"Oxford","latitude":36.2982,"longitude":-78.5816,"stars":"","new_name":"Burger King"},{"name":"Taco Bell","city":"Garner","latitude":35.605504788,"longitude":-78.56776807,"stars":"","new_name":"Taco Bell"},{"name":"Taco Bell","city":"Benson","latitude":35.517011943,"longitude":-78.561829255,"stars":"","new_name":"Taco Bell"},{"name":"McDonald's","city":"Garner","latitude":35.61036,"longitude":-78.55764,"stars":"","new_name":"McDonald's"},{"name":"Wendy's","city":"Raleigh","latitude":35.875349614,"longitude":-78.540333482,"stars":"","new_name":"Wendy's"},{"name":"Wendy's","city":"Clayton","latitude":35.64077,"longitude":-78.44969,"stars":"","new_name":"Wendy's"},{"name":"Wendy's","city":"Henderson","latitude":36.3325,"longitude":-78.4347,"stars":"","new_name":"Wendy's"},{"name":"McDonald's","city":"Henderson","latitude":36.31855,"longitude":-78.38201,"stars":"","new_name":"McDonald's"},{"name":"Taco Bell","city":"Zebulon","latitude":35.83341,"longitude":-78.31473,"stars":"","new_name":"Taco Bell"},{"name":"Bojangles' Famous Chicken 'n Biscuits","city":"Louisburg","latitude":36.084667,"longitude":-78.306835,"stars":"","new_name":"Bojangles"},{"name":"Wendy's","city":"Mount Olive","latitude":35.2099,"longitude":-78.0813,"stars":"","new_name":"Wendy's"},{"name":"Bojangles' Famous Chicken 'n Biscuits","city":"Southport","latitude":33.9516,"longitude":-78.0426,"stars":"","new_name":"Bojangles"},{"name":"McDonald's","city":"Leland","latitude":34.21188,"longitude":-78.02454,"stars":"","new_name":"McDonald's"},{"name":"Mcdonald's","city":"Goldsboro","latitude":35.404387895,"longitude":-78.023114555,"stars":"","new_name":"McDonald's"},{"name":"McDonald's","city":"Leland","latitude":34.234477,"longitude":-78.000649,"stars":"","new_name":"McDonald's"},{"name":"Subway","city":"Leland","latitude":34.234442,"longitude":-78.000568,"stars":"","new_name":"Subway"},{"name":"Bojangles' Famous Chicken 'n Biscuits","city":"Leland","latitude":34.233062,"longitude":-77.996404,"stars":"","new_name":"Bojangles"},{"name":"Taco Bell","city":"Leland","latitude":34.23389,"longitude":-77.99544,"stars":"","new_name":"Taco Bell"},{"name":"Burger King","city":"Wilmington","latitude":34.22471,"longitude":-77.94414,"stars":"","new_name":"Burger King"},{"name":"Chick-fil-A","city":"Goldsboro","latitude":35.380475,"longitude":-77.932916,"stars":"","new_name":"Chick-fil-A"},{"name":"McDonald's","city":"Wilson","latitude":35.7532,"longitude":-77.9303,"stars":"","new_name":"McDonald's"},{"name":"Mcdonald's","city":"Wilson","latitude":35.742939752,"longitude":-77.92388443,"stars":"","new_name":"McDonald's"},{"name":"McDonald's","city":"Burgaw","latitude":34.56011,"longitude":-77.91841,"stars":"","new_name":"McDonald's"},{"name":"Bojangles' Famous Chicken 'n Biscuits","city":"Burgaw","latitude":34.56021,"longitude":-77.91729,"stars":"","new_name":"Bojangles"},{"name":"McDonald's","city":"Carolina Beach","latitude":34.0313,"longitude":-77.89517,"stars":"","new_name":"McDonald's"},{"name":"McDonald's","city":"Wilson","latitude":35.723494,"longitude":-77.894081,"stars":"","new_name":"McDonald's"},{"name":"Bojangles' Famous Chicken 'n Biscuits","city":"Wilmington","latitude":34.243498,"longitude":-77.888748,"stars":"","new_name":"Bojangles"},{"name":"Burger King","city":"Wilmington","latitude":34.22091,"longitude":-77.88306,"stars":"","new_name":"Burger King"},{"name":"Chick-Fil-A","city":"Wilmington","latitude":34.22461,"longitude":-77.86808,"stars":"","new_name":"Chick-fil-A"},{"name":"Burger King","city":"Wilmington","latitude":34.264065,"longitude":-77.852936,"stars":"","new_name":"Burger King"},{"name":"McDonald's","city":"Rocky Mount","latitude":35.94444,"longitude":-77.77574,"stars":"","new_name":"McDonald's"},{"name":"McDonald's","city":"Rocky Mount","latitude":35.9442,"longitude":-77.7753,"stars":"","new_name":"McDonald's"},{"name":"Bojangles' Famous Chicken 'n Biscuits","city":"Rocky Mount","latitude":35.946392,"longitude":-77.76416,"stars":"","new_name":"Bojangles"},{"name":"Burger King","city":"Roanoke Rapids","latitude":36.4347,"longitude":-77.63802,"stars":"","new_name":"Burger King"},{"name":"Wendy's","city":"Roanoke Rapids","latitude":36.433883,"longitude":-77.637117,"stars":"","new_name":"Wendy's"},{"name":"McDonald's","city":"Roanoke Rapids","latitude":36.43289,"longitude":-77.63654,"stars":"","new_name":"McDonald's"},{"name":"Taco Bell","city":"Roanoke Rapids","latitude":36.432534,"longitude":-77.634273,"stars":"","new_name":"Taco Bell"},{"name":"Mcdonald's","city":"Roanoke Rapids","latitude":36.427636224,"longitude":-77.633986473,"stars":"","new_name":"McDonald's"},{"name":"Chick-Fil-A","city":"Roanoke Rapids","latitude":36.42488,"longitude":-77.63228,"stars":"","new_name":"Chick-fil-A"},{"name":"Wendy's","city":"Kinston","latitude":35.28585,"longitude":-77.58932,"stars":"","new_name":"Wendy's"},{"name":"McDonald's","city":"Jacksonville","latitude":34.76063,"longitude":-77.4143,"stars":"","new_name":"McDonald's"},{"name":"McDonald's","city":"Greenville","latitude":35.6085,"longitude":-77.3953,"stars":"","new_name":"McDonald's"},{"name":"McDonald's","city":"Greenville","latitude":35.5748,"longitude":-77.38778,"stars":"","new_name":"McDonald's"},{"name":"Burger King","city":"Jacksonville","latitude":34.74447,"longitude":-77.37977,"stars":"","new_name":"Burger King"},{"name":"Burger King","city":"Greenville","latitude":35.5685,"longitude":-77.3519,"stars":"","new_name":"Burger King"},{"name":"Taco Bell","city":"Midway Park","latitude":34.732051,"longitude":-77.350008,"stars":"","new_name":"Taco Bell"},{"name":"Wendy's","city":"Camp Lejeune","latitude":34.72418,"longitude":-77.34444,"stars":"","new_name":"Wendy's"},{"name":"McDonald's","city":"Greenville","latitude":35.5818,"longitude":-77.3082,"stars":"","new_name":"McDonald's"},{"name":"McDonalds","city":"Swansboro","latitude":34.69765,"longitude":-77.14086,"stars":"","new_name":"McDonald's"},{"name":"Wendy's","city":"Swansboro","latitude":34.69702,"longitude":-77.13973,"stars":"","new_name":"Wendy's"},{"name":"Chick-fil-A","city":"New Bern","latitude":35.103709,"longitude":-77.085322,"stars":"","new_name":"Chick-fil-A"},{"name":"McDonald's","city":"Swansboro","latitude":34.68926,"longitude":-77.0681,"stars":"","new_name":"McDonald's"},{"name":"McDonald's","city":"Williamston","latitude":35.660152,"longitude":-77.04835,"stars":"","new_name":"McDonald's"},{"name":"Burger King","city":"Ahoskie","latitude":36.27627,"longitude":-76.97745,"stars":"","new_name":"Burger King"},{"name":"Wendy's","city":"Ahoskie","latitude":36.272189,"longitude":-76.97079,"stars":"","new_name":"Wendy's"},{"name":"Wendy's","city":"Havelock","latitude":34.889649152,"longitude":-76.921967,"stars":"","new_name":"Wendy's"},{"name":"Taco Bell","city":"Morehead City","latitude":34.726019,"longitude":-76.766431,"stars":"","new_name":"Taco Bell"},{"name":"Wendy's","city":"Plymouth","latitude":35.83487,"longitude":-76.7649,"stars":"","new_name":"Wendy's"},{"name":"Bojangles' Famous Chicken 'n Biscuits","city":"Plymouth","latitude":35.86167,"longitude":-76.73534,"stars":"","new_name":"Bojangles"},{"name":"Burger King","city":"Plymouth","latitude":35.86222,"longitude":-76.73268,"stars":"","new_name":"Burger King"},{"name":"Wendy's","city":"Elizabeth City","latitude":36.29439,"longitude":-76.241178,"stars":"","new_name":"Wendy's"},{"name":"McDonald's","city":"Elizabeth City","latitude":36.29481,"longitude":-76.24015,"stars":"","new_name":"McDonald's"},{"name":"McDonald's","city":"Kitty Hawk","latitude":36.09857,"longitude":-75.71965,"stars":"","new_name":"McDonald's"},{"name":"Burger King","city":"Alexis","latitude":40.457989,"longitude":-3.700862,"stars":"","new_name":"Burger King"}]